{
  "type": "FeatureCollection",
  "features": [
    {
      "type": "Feature",
      "geometry": {
        "type": "Point",
        "coordinates": [6.865217791451906, 45.83321949365825]
      },
      "properties": {
        "name": "GR Tour du Mont-Blanc",
        "code": "GR-TMB",
        "distance": "170",
        "length": "7-10 days",
        "difficulty": "Moderate",
        "gpx": "tour-du-mont-blanc.gpx",
        "points": [
          {
            "name": "Aiguille de Bionnassay",
            "coordinates": [6.81900079467079, 45.837168488861025]
          },
          {
            "name": "Dômes de Miage",
            "coordinates": [6.800572330075051, 45.815693529154395]
          },
          {
            "name": "Aiguille du Goûter",
            "coordinates": [6.831320911032362, 45.851069554217354]
          },
          {
            "name": "Aiguilles de la Penaz",
            "coordinates": [6.699486911024293, 45.74500587881309]
          },
          {
            "name": "Aiguille des Glaciers",
            "coordinates": [6.802568753355134, 45.77872378033517]
          },
          {
            "name": "Pyramides Calcaires",
            "coordinates": [6.819874198899301, 45.7622869365314]
          },
          {
            "name": "Mont Fortin",
            "coordinates": [6.871716759934526, 45.76459790724845]
          },
          {
            "name": "Aiguille de Tré la Tête",
            "coordinates": [6.81521457240174, 45.794990913000625]
          },
          {
            "name": "Mont Blanc",
            "coordinates": [6.86530364171782, 45.832980533965824]
          },
          {
            "name": "Aiguille Noire de Peuterey",
            "coordinates": [6.893675368701334, 45.81535829756355]
          },
          {
            "name": "Dent du Géant",
            "coordinates": [6.952009757063493, 45.86253107925643]
          },
          {
            "name": "Grandes Jorasses",
            "coordinates": [6.988049568705449, 45.869139527600176]
          },
          {
            "name": "Aiguille de la Brenva",
            "coordinates": [6.917777816699568, 45.83490533206604]
          },
          {
            "name": "Mont Dolent",
            "coordinates": [7.044469614739828, 45.923094872895454]
          },
          {
            "name": "Grand Combin",
            "coordinates": [7.298985226382368, 45.937193343230824]
          },
          {
            "name": "Aiguille de Triolet",
            "coordinates": [7.02471406870914, 45.91724168408093]
          },
          {
            "name": "Tour Noir",
            "coordinates": [7.037608811039832, 45.94916431701662]
          },
          {
            "name": "Aiguillette d'Argentière",
            "coordinates": [6.912129741729411, 45.98521820118938]
          },
          {
            "name": "Aiguille Verte",
            "coordinates": [6.970058653367063, 45.935114061788646]
          }
        ]
      }
    },
    {
      "type": "Feature",
      "geometry": {
        "type": "Point",
        "coordinates": [9.133863194279673, 42.129379933486675]
      },
      "properties": {
        "name": "GR 20 : La Corse du Nord au Sud",
        "code": "GR-20",
        "distance": "179",
        "length": "2 weeks",
        "difficulty": "Hard",
        "gpx": "corse-du-nord-au-sud.gpx",
        "points": [
          {
            "name": "Cirque de la solitude",
            "coordinates": [8.908290233522612, 42.37859483540604]
          },
          {
            "name": "Monte Cinto",
            "coordinates": [8.945763249401882, 42.37988333470776]
          },
          {
            "name": "Lac de Nino",
            "coordinates": [8.940442515675752, 42.25571664833851]
          },
          {
            "name": "Monte d'Oro",
            "coordinates": [9.098388826101642, 42.137561130158275]
          },
          {
            "name": "Cascade des Anglais",
            "coordinates": [9.110091910756768, 42.11732736931272]
          },
          {
            "name": "Monte Renoso",
            "coordinates": [9.13356674143952, 42.06000598986816]
          },
          {
            "name": "Monte Incudine",
            "coordinates": [9.20741348745481, 41.849537831158834]
          },
          {
            "name": "Aiguilles de Bavella",
            "coordinates": [9.213535686237993, 41.810757637604226]
          }
        ]
      }
    },
    {
      "type": "Feature",
      "geometry": {
        "type": "Point",
        "coordinates": [6.260415511132316, 44.89402084695794]
      },
      "properties": {
        "name": "GR 54 : Tour de l'Oisans et des Ecrins",
        "code": "GR-54",
        "distance": "189",
        "length": "11 days",
        "difficulty": "Hard",
        "gpx": "gr-54.gpx",
        "points": [
          {
            "name": "Glacier de la Girose",
            "coordinates": [6.251510590434926, 45.00801190240906]
          },
          {
            "name": "Meije",
            "coordinates": [6.309869269840454, 45.00599952707787]
          },
          {
            "name": "Grande Ruine",
            "coordinates": [6.334356943788622, 44.969171969939694]
          },
          {
            "name": "Glacier Blanc",
            "coordinates": [6.386008098245224, 44.94281266516143]
          },
          {
            "name": "Barre des Ecrins",
            "coordinates": [6.364892235757465, 44.92340919375992]
          },
          {
            "name": "Pic Coolidge",
            "coordinates": [6.359330145829238, 44.91137595726838]
          },
          {
            "name": "Glacier Noir",
            "coordinates": [6.386804084469051, 44.91747790812943]
          },
          {
            "name": "Mont Pelvoux",
            "coordinates": [6.404361082278565, 44.90014805108391]
          },
          {
            "name": "Glacier du Vallon des Etages",
            "coordinates": [6.257498724355432, 44.89796157980764]
          }
        ]
      }
    },
    {
      "type": "Feature",
      "geometry": {
        "type": "Point",
        "coordinates": [6.827895666321505, 45.401461171953734]
      },
      "properties": {
        "name": "GR 55 : De Tignes à Modane",
        "code": "GR-55",
        "distance": "56",
        "length": "3 days",
        "difficulty": "Moderate",
        "gpx": "gr-55.gpx",
        "points": [
          {
            "name": "Glacier de la Grande Motte",
            "coordinates": [6.885767681166933, 45.421343525408204]
          },
          {
            "name": "Grande Motte",
            "coordinates": [6.876791421929053, 45.411577524738526]
          },
          {
            "name": "Grande Casse",
            "coordinates": [6.831963083291134, 45.40666157663881]
          },
          {
            "name": "Pointe Mathews",
            "coordinates": [6.826978498084137, 45.40072815479714]
          },
          {
            "name": "Pointe de la Fournache",
            "coordinates": [6.752740428404493, 45.287503730437315]
          },
          {
            "name": "Roche Chevrière",
            "coordinates": [6.704581419461605, 45.29286670268169]
          },
          {
            "name": "Pointe de l'Échelle",
            "coordinates": [6.685055234788157, 45.2692348441621]
          }
        ]
      }
    },
    {
      "type": "Feature",
      "geometry": {
        "type": "Point",
        "coordinates": [6.831247713242294, 44.683841113680415]
      },
      "properties": {
        "name": "GR 58 : Tour du Queyras",
        "code": "GR-58",
        "distance": "128",
        "length": "8 days",
        "difficulty": "Moderate",
        "gpx": "tour-du-queyras.gpx",
        "points": [
          {
            "name": "Col des Estronques",
            "coordinates": [6.827027030823455, 44.685920688638504]
          },
          {
            "name": "Col de Chamoussière",
            "coordinates": [6.958899453272395, 44.682157889468606]
          },
          {
            "name": "Col Agnel",
            "coordinates": [6.979483480257424, 44.68429009199315]
          },
          {
            "name": "Col Vieux",
            "coordinates": [6.986550164914894, 44.69619042930633]
          },
          {
            "name": "Crête de Peyra Plata",
            "coordinates": [6.979242622593617, 44.78976962147132]
          },
          {
            "name": "Collette de Gilly",
            "coordinates": [6.9600314532809255, 44.79651203405864]
          },
          {
            "name": "Le Grand Laus",
            "coordinates": [6.869783068097605, 44.82253871722548]
          },
          {
            "name": "Les fonts de Cervieres",
            "coordinates": [6.8182204409189655, 44.844230280036385]
          },
          {
            "name": "Col de Furfande",
            "coordinates": [6.710887164917834, 44.73544443669807]
          },
          {
            "name": "Col de Bramousse",
            "coordinates": [6.780912199303034, 44.687732006416844]
          }
        ]
      }
    },
    {
      "type": "Feature",
      "geometry": {
        "type": "Point",
        "coordinates": [-61.721823720618666, 16.13571160561537]
      },
      "properties": {
        "name": "GR G1 : Guadeloupe Trace des Alizés",
        "code": "GR-G1",
        "distance": "85",
        "length": "6 days",
        "difficulty": "Hard",
        "gpx": "grr-g1-guadeloupe-trace-des-alizes.gpx",
        "points": [
          {
            "name": "Tete Allegre",
            "coordinates": [-61.73620819856562, 16.27179019252935]
          },
          {
            "name": "Pitons de Bouillante",
            "coordinates": [-61.721823720618666, 16.13571160561537]
          },
          {
            "name": "Carmichael",
            "coordinates": [-61.656603952842936, 16.056277422828998]
          },
          {
            "name": "Grande Soufrière",
            "coordinates": [-61.662866661251805, 16.044436928458136]
          },
          {
            "name": "Citerne",
            "coordinates": [-61.652400226881234, 16.035402787568398]
          },
          {
            "name": "Morne Grande Voûte",
            "coordinates": [-61.691816014280825, 15.973158981239356]
          }
        ]
      }
    },
    {
      "type": "Feature",
      "geometry": {
        "type": "Point",
        "coordinates": [55.4811297952491, -21.08610904931653]
      },
      "properties": {
        "name": "GR R2 : La Traversée de la Réunion",
        "code": "GR-R2",
        "distance": "145",
        "length": "10 days",
        "difficulty": "Moderate",
        "gpx": "traversee-de-la-reunion.gpx",
        "points": [
          {
            "name": "Roche Écrite",
            "coordinates": [55.460832838783084, -21.01223695342989]
          },
          {
            "name": "Cirque de Mafate",
            "coordinates": [55.427216236574736, -21.049593731512342]
          },
          {
            "name": "Maïdo",
            "coordinates": [55.387949655620844, -21.068428059543095]
          },
          {
            "name": "Col du Taïbit",
            "coordinates": [55.432371521233726, -21.112326443667552]
          },
          {
            "name": "Grand Bénare",
            "coordinates": [55.4225848752036, -21.115670222718837]
          },
          {
            "name": "Piton des Neiges",
            "coordinates": [55.48027039424835, -21.098844072830907]
          },
          {
            "name": "Dimitile",
            "coordinates": [55.482180428640646, -21.19043270831534]
          },
          {
            "name": "Piton de la Fournaise",
            "coordinates": [55.7086687181129, -21.240641663861954]
          }
        ]
      }
    },
    {
      "type": "Feature",
      "geometry": {
        "type": "Point",
        "coordinates": [6.928977606486259, 46.162160774034696]
      },
      "properties": {
        "name": "GRP : Tour des Dents du Midi",
        "code": "grp-tour-des-dents-du-midi",
        "distance": "48",
        "length": "4 days",
        "difficulty": "Moderate",
        "gpx": "grp-tour-des-dents-du-midi.gpx",
        "points": [
          {
            "name": "Cime de l'Est",
            "coordinates": [6.948100035494209, 46.17287031196746]
          },
          {
            "name": "La Forteresse",
            "coordinates": [6.938728470303812, 46.17111523211488]
          },
          {
            "name": "La Cathédrale",
            "coordinates": [6.936274257982256, 46.169668460330115]
          },
          {
            "name": "L'Eperon",
            "coordinates": [6.93220500844877, 46.16775913930391]
          },
          {
            "name": "Dent Jaune",
            "coordinates": [6.929230081283204, 46.166047038074005]
          },
          {
            "name": "Doigts de Salanfe",
            "coordinates": [6.925401315086041, 46.163477127960185]
          },
          {
            "name": "Haute Cime",
            "coordinates": [6.922911335168758, 46.16145440918973]
          }
        ]
      }
    },
    {
      "type": "Feature",
      "geometry": {
        "type": "Point",
        "coordinates": [7.000675253181784, 44.69250219399319]
      },
      "properties": {
        "name": "GRP : Tour du Pain de Sucre",
        "code": "grp-tour-du-pain-de-sucre",
        "distance": "46",
        "length": "4 days",
        "difficulty": "Moderate",
        "gpx": "grp-tour-du-pain-de-sucre.gpx",
        "points": [
          {
            "name": "Col Agnel",
            "coordinates": [6.979522333540309, 44.68398522524258]
          },
          {
            "name": "Monviso",
            "coordinates": [7.090381074643271, 44.66731676627999]
          },
          {
            "name": "Mont Meidassa",
            "coordinates": [7.072221225035385, 44.71916763957251]
          },
          {
            "name": "Le Pain de Sucre",
            "coordinates": [6.99638786520678, 44.690279108313405]
          }
        ]
      }
    },
    {
      "type": "Feature",
      "geometry": {
        "type": "Point",
        "coordinates": [-0.4373548854190112, 42.84385177442674]
      },
      "properties": {
        "name": "GRP : Tour du Pic du Midi d'Ossau",
        "code": "grp-grand-tour-du-pic-du-midi-d-ossau",
        "distance": "22",
        "length": "2 days",
        "difficulty": "Hard",
        "gpx": "grp-grand-tour-du-pic-du-midi-d-ossau.gpx",
        "points": [
          {
            "name": "Pic du Midi d'Ossau",
            "coordinates": [-0.4373548854190112, 42.84385177442674]
          }
        ]
      }
    },
    {
      "type": "Feature",
      "geometry": {
        "type": "Point",
        "coordinates": [6.76989268606662, 45.363464628305074]
      },
      "properties": {
        "name": "TGV : Tour des Glaciers de la Vanoise",
        "code": "TGV",
        "distance": "82",
        "length": "7 days",
        "difficulty": "Moderate",
        "gpx": "tour-des-glaciers-de-la-vanoise.gpx",
        "points": [
          {
            "name": "Pointe de la Réchasse",
            "coordinates": [6.801947725492603, 45.373440575336204]
          },
          {
            "name": "Grande Motte",
            "coordinates": [6.872499331814513, 45.41055452227298]
          },
          {
            "name": "Grande Casse",
            "coordinates": [6.827500711188065, 45.405277240088274]
          },
          {
            "name": "Pointe du Dard",
            "coordinates": [6.7654147792743204, 45.36375718726279]
          },
          {
            "name": "Dôme de l'Arpont",
            "coordinates": [6.743842145415966, 45.3186927262319]
          },
          {
            "name": "Dôme de Polset",
            "coordinates": [6.640475239786705, 45.27711354093364]
          }
        ]
      }
    }
  ]
}
